{
    "toiletData":
    [
        {
            "ID":1000040101,
            "location":"eng_4_1f_1",
            "locationJa":"工学部4号館1F女性用",
            "floor":1,
            "lat":35.7148121,
            "lng":139.7614655,
            "entranceLat":35.7147792,
            "entranceLng":139.7617532,
            "sex":"female",
            "metadata":
            {
                "maleSmall":0,
                "maleBigYou":0,
                "maleBigWa":0,
                "femaleBigYou":2,
                "femaleBigWa":0,
                "multipurpose":false,
                "washlet": true,
                "madeYear": 2015,
                "notRecyclePaper":false,
                "doublePaper":false,
                "seatWarmer":true,
                "image":null
            }
        },
        {
            "ID":1000040102,
            "location":"eng_4_1f_2",
            "locationJa":"工学部4号館1F多目的トイレ",
            "floor":1,
            "lat":35.7148121,
            "lng":139.7614955,
            "entranceLat":35.7147792,
            "entranceLng":139.7617532,
            "sex":"all",
            "metadata":
            {
                "maleSmall":0,
                "maleBigYou":0,
                "maleBigWa":0,
                "femaleBigYou":0,
                "femaleBigWa":0,
                "multipurpose":true,
                "washlet": true,
                "madeYear": 2015,
                "notRecyclePaper":false,
                "doublePaper":false,
                "seatWarmer":true,
                "image":null
            }
        },
        {
            "ID":1000040103,
            "location":"eng_4_1f_3",
            "locationJa":"工学部4号館1F男性用",
            "floor":1,
            "lat":35.7154232,
            "lng":139.7617267,
            "entranceLat":35.7147792,
            "entranceLng":139.7617532,
            "sex":"male",
            "metadata":
            {
                "maleSmall":2,
                "maleBigYou":2,
                "maleBigWa":0,
                "femaleBigYou":0,
                "femaleBigWa":0,
                "multipurpose":false,
                "washlet": true,
                "madeYear": 2015,
                "notRecyclePaper":false,
                "doublePaper":false,
                "seatWarmer":true,
                "image":null
            }
        },
        {
            "ID":1000040201,
            "location":"eng_4_2f_1",
            "locationJa":"工学部4号館2F男性用",
            "floor":2,
            "lat":35.7154232,
            "lng":139.7617567,
            "entranceLat":35.7147792,
            "entranceLng":139.7617532,
            "sex":"male",
            "metadata":
            {
                "maleSmall":2,
                "maleBigYou":2,
                "maleBigWa":0,
                "femaleBigYou":0,
                "femaleBigWa":0,
                "multipurpose":false,
                "washlet": true,
                "madeYear": 2015,
                "notRecyclePaper":false,
                "doublePaper":false,
                "seatWarmer":true,
                "image":null
            }
        },
        {
            "ID":1000040301,
            "location":"eng_4_3f_1",
            "locationJa":"工学部4号館3F",
            "floor":3,
            "lat":35.7148121,
            "lng":139.7615255,
            "entranceLat":35.7147792,
            "entranceLng":139.7617532,
            "sex":"all",
            "metadata":
            {
                "maleSmall":2,
                "maleBigYou":2,
                "maleBigWa":0,
                "femaleBigYou":2,
                "femaleBigWa":0,
                "multipurpose":false,
                "washlet": true,
                "madeYear": 2015,
                "notRecyclePaper":false,
                "doublePaper":false,
                "seatWarmer":true,
                "image":null
            }
        },
        {
            "ID":2000040101,
            "location":"sch_4_1f_1",
            "locationJa":"理学部4号館1F",
            "floor":1,
            "lat":35.7133584,
            "lng":139.7632636,
            "entranceLat":35.7133266,
            "entranceLng":139.7629028,
            "sex":"all",
            "metadata":
            {
                "maleSmall":2,
                "maleBigYou":2,
                "maleBigWa":0,
                "femaleBigYou":2,
                "femaleBigWa":0,
                "multipurpose":false,
                "washlet": true,
                "madeYear": 2010,
                "notRecyclePaper":false,
                "doublePaper":false,
                "seatWarmer":true,
                "image":null
            }
        }
    ]
}